[
  {
    "id": "1",
    "name": "The Local Bistro",
    "towns": ["Downtown"],
    "categories": ["food"],
    "primaryCategory": "food",
    "tags": ["romantic", "date-night", "wine"],
    "notes": "Cozy French bistro with excellent wine selection",
    "address": "123 Main St, Downtown",
    "phone": "(555) 123-4567",
    "url": "https://localbistro.com",
    "lat": 34.0522,
    "lng": -118.2437
  },
  {
    "id": "2",
    "name": "Craft Coffee Co.",
    "towns": ["Midtown"],
    "categories": ["coffee"],
    "primaryCategory": "coffee",
    "tags": ["wifi", "study", "pastries"],
    "notes": "Third-wave coffee with local roasters",
    "address": "456 Oak Ave, Midtown",
    "phone": "(555) 234-5678",
    "lat": 34.0622,
    "lng": -118.2537
  },
  {
    "id": "3",
    "name": "Sunset Hiking Trail",
    "towns": ["West Hills"],
    "categories": ["hiking", "outdoor"],
    "primaryCategory": "hiking",
    "tags": ["views", "moderate", "family-friendly"],
    "notes": "Beautiful sunset views, 3-mile loop trail",
    "address": "789 Trail Head Rd, West Hills",
    "lat": 34.0722,
    "lng": -118.2637
  },
  {
    "id": "4",
    "name": "The Wine Bar",
    "towns": ["Downtown"],
    "categories": ["wine", "bar"],
    "primaryCategory": "wine",
    "tags": ["live-music", "cheese-plates", "date-night"],
    "notes": "Extensive wine list with live jazz on weekends",
    "address": "321 Vine St, Downtown",
    "phone": "(555) 345-6789",
    "lat": 34.0522,
    "lng": -118.2337
  },
  {
    "id": "5",
    "name": "Art Gallery District",
    "towns": ["Arts Quarter"],
    "categories": ["art", "shopping"],
    "primaryCategory": "art",
    "tags": ["galleries", "local-artists", "events"],
    "notes": "Multiple galleries featuring local and regional artists",
    "address": "100 Gallery Row, Arts Quarter",
    "lat": 34.0422,
    "lng": -118.2237
  }
]
